{
  "Лазур бл. 158||БУРГАС||Бургас": {
    "lat": 42.5095302,
    "lng": 27.4695075,
    "provider": "nominatim_free",
    "display_name": "бл. 158, ж.к. Лазур, Бургас, 8001, България"
  },
  "ул. Д-р Златко Пков 1||БАЛЧИК||Добрич": {
    "lat": 43.401131,
    "lng": 28.226135,
    "provider": "overpass",
    "display_name": "СБЗ \"Тузлата\""
  },
  "бул. 25-ти септември 68||ДОБРИЧ||Добрич": {
    "lat": 43.5776089,
    "lng": 27.8287398,
    "provider": "nominatim_free",
    "display_name": "2 ДКЦ, 68, бул. 25-ти Септември, ж.к. Север 1, Добрич, 9300, България"
  },
  "25-ти Септември 68||ДОБРИЧ||Добрич": {
    "lat": 43.4271666,
    "lng": 28.3382045,
    "provider": "nominatim",
    "display_name": "25-ти септември, Каварна, Добрич, 9650, България"
  },
  "ул. Славянска 2А 2||РУСЕ||Русе": {
    "lat": 43.846508,
    "lng": 25.9559041,
    "provider": "overpass",
    "display_name": "ЦМИ.ТПЦ"
  },
  "ул. Бригадирска 1||ЕТРОПОЛЕ||София - област": {
    "lat": 42.8392417,
    "lng": 23.9997538,
    "provider": "overpass",
    "display_name": "МБАЛ „Проф.д-р Ал.Герчев” Етрополе"
  },
  "ул. Боо Божилов 1||БОТЕВГРАД||София - област": {
    "lat": 42.6996825,
    "lng": 23.2728079,
    "provider": "nominatim_city",
    "display_name": "Ботевград, кв. Факултета, София, Красна поляна, Столична, София-град, 1373, България"
  },
  "ул. Македония 49||САМОКОВ||София - област": {
    "lat": 42.6678324,
    "lng": 23.3496761,
    "provider": "nominatim_city",
    "display_name": "Самоков, ж.к. Изгрев, София, Изгрев, Столична, София-град, 1172, България"
  },
  "ул. Здравец 15||ЕЛИН ПЕЛИН||София - област": {
    "lat": 42.66407,
    "lng": 23.6006812,
    "provider": "nominatim_free",
    "display_name": "МБАЛ Елин Пелин, 15, улица Здравец, Елин Пелин, Софийска, 2100, България"
  },
  "ул. Коста Хаджипакев 7||ПЛЕВЕН||Плевен": {
    "lat": 43.5375929,
    "lng": 24.5861751,
    "provider": "nominatim_city",
    "display_name": "Плевен, Подем, Долна Митрополия, Плевен, България"
  },
  "парк Кайлъка местност Стражата||ПЛЕВЕН||Плевен": {
    "lat": 43.4006568,
    "lng": 24.6088739,
    "provider": "overpass",
    "display_name": "Психолог Даниела Кръстева"
  },
  "ул. Георги Бенковски 19||С.ТУЧЕНИЦА||Плевен": {
    "lat": 43.3554615,
    "lng": 24.6057521,
    "provider": "nominatim_city",
    "display_name": "Тученица, Брестовец, Плевен, 5800, България"
  },
  "ул. Радецки 30||ТРОЯН||Ловеч": {
    "lat": 42.8975708,
    "lng": 24.7114091,
    "provider": "overpass",
    "display_name": "Специализирана болница за активно лечение на белодробни болести - Троян"
  },
  "ул. Търновска 55||ОМУРТАГ||Търговище": {
    "lat": 43.1093385,
    "lng": 26.4204592,
    "provider": "nominatim_city",
    "display_name": "Омуртаг, Търговище, 7900, България"
  },
  "ул. Пирин 16||ТЪРГОВИЩЕ||Търговище": {
    "lat": 43.2423723,
    "lng": 26.5621432,
    "provider": "overpass",
    "display_name": "Многопрофилна болница за активно лечение Търговище АД"
  },
  "ул. Съйко Съев 27||ЛОВЕЧ||Ловеч": {
    "lat": 43.1326475,
    "lng": 24.7063141,
    "provider": "overpass",
    "display_name": "Многопрофилна болница за активно лечение Проф. Д-р. Параскев Стоянов - Ловеч"
  },
  "ул. Староселска 4||СВОГЕ||София - област": {
    "lat": 42.7242887,
    "lng": 23.2647656,
    "provider": "nominatim_city",
    "display_name": "Своге, ж.к. Люлин 8, ж.к. Люлин, София, Люлин, Столична, София-град, 1360, България"
  },
  "Зад||ТЪРГОВИЩЕ||Търговище": {
    "lat": 43.2423723,
    "lng": 26.5621432,
    "provider": "overpass",
    "display_name": "Многопрофилна болница за активно лечение Търговище АД"
  },
  "ул. Генерал Леонов 95 3||ВРАЦА||Враца": {
    "lat": 43.1936769,
    "lng": 23.5700431,
    "provider": "overpass",
    "display_name": "Първа частна МБАЛ - Враца"
  },
  "ул. Хан Крум 5||ГОРНА ОРЯХОВИЦА||Велико Търново": {
    "lat": 43.1163975,
    "lng": 25.6987786,
    "provider": "overpass",
    "display_name": "МБАЛ Св. Иван Рилски"
  },
  "ул. Отец Пайсий 72||ГОРНА ОРЯХОВИЦА||Велико Търново": {
    "lat": 43.1163975,
    "lng": 25.6987786,
    "provider": "overpass",
    "display_name": "МБАЛ Св. Иван Рилски"
  },
  "ул. Иван Вазов 11||НЕСЕБЪР||Бургас": {
    "lat": 42.6532823,
    "lng": 27.6927367,
    "provider": "overpass",
    "display_name": "Специализирана болница за рехабилитация Мари"
  },
  "ул. Тодор Николов 10||СРЕДЕЦ||Бургас": {
    "lat": 42.4856106,
    "lng": 27.3816973,
    "provider": "nominatim_city",
    "display_name": "Средец, кв. Горно Езерово, Бургас, 8009, България"
  },
  "ул. Ивайло 11А||СВЕТИ ВЛАС||Бургас": {
    "lat": 42.7157294,
    "lng": 27.7597403,
    "provider": "overpass",
    "display_name": "Лайф хоспитал"
  },
  "бул. Съединение 49||ХАСКОВО||Хасково": {
    "lat": 41.9338216,
    "lng": 25.5663365,
    "provider": "nominatim_free",
    "display_name": "49, бул. Съединение, Източна индустриална зона, ж.к. Изгрев, Хасково, 6300, България"
  },
  "ул. Шейново 4||АЙТОС||Бургас": {
    "lat": 42.696786,
    "lng": 27.2487125,
    "provider": "overpass",
    "display_name": "ЦСМП Айтос"
  },
  "ул. Проф.Парашкев Стоянов 1||ПОМОРИЕ||Бургас": {
    "lat": 42.5589876,
    "lng": 27.6369921,
    "provider": "overpass",
    "display_name": "св.Георги"
  },
  "ул. Д-р Зл. Пков 1||БАЛЧИК||Добрич": {
    "lat": 43.401131,
    "lng": 28.226135,
    "provider": "overpass",
    "display_name": "СБЗ \"Тузлата\""
  },
  "бул. Мизия 5||ЛОВЕЧ||Ловеч": {
    "lat": 43.1570943,
    "lng": 24.7162691,
    "provider": "nominatim_free",
    "display_name": "5, бул. Мизия, ж.к. Здравец, Ловеч, 5500, България"
  },
  "ул. Хаджи Димитър 2  ин 1||ХАСКОВО||Хасково": {
    "lat": 41.9328424,
    "lng": 25.5547969,
    "provider": "nominatim_city",
    "display_name": "Хасково, 20, Васил Друмев, Хасково център, Хасково, 6300, България"
  },
  "ул. П. Евтимий 1  нула-||ХАСКОВО||Хасково": {
    "lat": 41.9328424,
    "lng": 25.5547969,
    "provider": "nominatim_city",
    "display_name": "Хасково, 20, Васил Друмев, Хасково център, Хасково, 6300, България"
  },
  "ул. Васил Левски 253||ТРОЯН||Ловеч": {
    "lat": 42.8975708,
    "lng": 24.7114091,
    "provider": "overpass",
    "display_name": "Специализирана болница за активно лечение на белодробни болести - Троян"
  },
  "ул. Цариградско шосе 56||КОСТЕНЕЦ||София - област": {
    "lat": 42.6837079,
    "lng": 23.2834394,
    "provider": "nominatim_city",
    "display_name": "Костенец, НПЗ Средец, София, Красно село, Столична, София-град, 1612, България"
  },
  "Санаториума||С.ИСКРЕЦ||София - област": {
    "lat": 42.7070379,
    "lng": 23.2854748,
    "provider": "nominatim_city",
    "display_name": "Искрец, ж.к. Илинден, София, Илинден, Столична, София-град, 1373, България"
  },
  "ул. Христо Ботев 6||МОМИН ПРОХОД||София - област": {
    "lat": 42.5831294,
    "lng": 23.3438773,
    "provider": "nominatim_city",
    "display_name": "Момин проход, Бистрица, Панчарево, Столична, София-град, 1444, България"
  }
}