Наименование,Област,Община,Населено място,Адрес,Управител,Телефон,lat,lng,provider,display_name,quality_score
ДКЦ-2-Добрич ЕООД,Добрич,КАВАРНА,Каварна,ул. Васил Левски 36,"Д-Р ВАЛЕРИ ВЕСЕЛИНОВ ТОДОРОВ, СИЛВИЯ ГЕОРГИЕВА ДЕМИРЕВА-ТРИФОНОВА","602-257,600-854",43.4249221,28.3394057,nominatim_free,"МБАЛ Каварна, 36, Васил Левски, Каварна, Добрич, 9650, България",100
ДКЦ-2-Добрич ЕООД,Добрич,БАЛЧИК,Балчик,ул. д-р Златко Петков 1,"Д-Р ВАЛЕРИ ВЕСЕЛИНОВ ТОДОРОВ, СИЛВИЯ ГЕОРГИЕВА ДЕМИРЕВА-ТРИФОНОВА","602-257,600-854",43.4096568,28.163484,nominatim_free,"Д-р Златко Петков, Хоризонт, Балчик, Добрич, 9601, България",95
ДКЦ-2-Добрич ЕООД,Добрич,ДОБРИЧ-ГРАД,Добрич,бул. 25-ти септември 68,"Д-Р ВАЛЕРИ ВЕСЕЛИНОВ ТОДОРОВ, СИЛВИЯ ГЕОРГИЕВА ДЕМИРЕВА-ТРИФОНОВА, АНЕЛИЯ ГЕОРГИЕВА КОЛАРОВА-КИСЬОВА","602-257,600-854",43.5776089,27.8287398,nominatim_free,"2 ДКЦ, 68, бул. 25-ти Септември, ж.к. Север 1, Добрич, 9300, България",80
ДКЦ-I-Добрич ЕООД,Добрич,ДОБРИЧ-ГРАД,Добрич,ул. Димитър Петков 3,"Д-Р БИСЕРКА АТАНАСОВА ПАЧОЛОВА-ЦЕНОВА, ВЕЛИНА ГЕОРГИЕВА КОМАРЕВА-ИВАНОВА, МАРИЯН ИВАНОВ АНАНИЕВ, ДИАНА ПЕТРОВА АРАБАДЖИЕВА-ДИМИТРОВА","601-474,0878711458,601-610,602-776",43.5708393,27.8317868,nominatim_free,"Димитър Петков, ЦГЧ, Добрич, 9300, България",95
МБАЛ - Ботевград ЕООД,София - област,БОТЕВГРАД,Ботевград,ул. Божко Божилов 1,"Д-Р ДИЛЯН ДОБРЕВ ТОМОВСКИ, МАРГАРИТА ТОДОРОВА СТОЕВА, Д-Р ФИЛИП ПЕТРОВ ФИЛЕВ, Д-Р КРАСИМИР ПАВЛОВ КУШЕВ, ПЛАМЕН КИРИЛОВ КИТАНОВ, ИВАН ДИМИТРОВ БАГЕЛЕЙСКИ, ОРЛИН ВЕСЕЛИНОВ ЦВЕТКОВ","072369400,072369401",42.9079346,23.8013184,nominatim_free,"МБАЛ, 1, Божко Божилов, ж.к. Васил Левски, Ботевград, Софийска, 2140, България",100
МБАЛ - Пирдоп АД,София - област,ПИРДОП,Пирдоп,ул. Георги Бенковски 24,"Д-Р ЮЛИЯ ДИМИТРОВА ИЛИЕВА, СОФИ ВЛАДИМИРОВ ДИНЧЕВ, СВЕТОСЛАВ ГЕОРГИЕВ ЧЕРВЕНКОВ, Д-Р ИВАН ВАСИЛЕВ ДИНЕВ, ЛЮБОМИР КОНСТАНТИНОВ ВАСЕВ, ИРИНА РАШКОВА ПАВЛОВА, Г-ЖА ТАТЯНА СПАСОВА КОНЯРСКА, Д-Р ДЕСИСЛАВА ДИМИТРОВА ТОЛИНОВА, ДАНИЕЛА ПЕТРОВА МИРКОВСКА, Д-Р МАРГАРИТА ИВАНОВА ГЕТОВА","0878632701,0886610805,0878632715,07181/5631,0878632731,0878632768",42.7017651,24.1691711,nominatim_free,"МБАЛ Пирдоп, 24, Георги Бенковски, Пирдоп, Софийска, 2070, България",100
МБАЛ - Самоков ЕООД,София - област,САМОКОВ,Самоков,ул. Македония 49,"Д-Р КРАСИМИРА АРАНГЕЛОВА КОВАЧКА, Д-Р СВЕТЛА КИРИЛОВА СКЕЛИНА","072266413,072289266",42.3360306,23.552102,nominatim_free,"МБАЛ Самоков, 49, Македония, Самоков, Софийска, 2000, България",90
МБАЛ - Скин Системс ООД,София - област,ПИРДОП,Пирдоп,ул. Георги Бенковски 24,"Д-Р СПАРТАК СТОЯНОВ МИЛЕВ, Д-Р КАТРИН КОСТАДИНОВА КРАХТОВА-НАСТЕВА","0888707040,0895125771",42.7017651,24.1691711,nominatim_free,"МБАЛ Пирдоп, 24, Георги Бенковски, Пирдоп, Софийска, 2070, България",100
МБАЛ - Скин Системс ООД,София - област,ЕЛИН ПЕЛИН,Елин Пелин,ул. Здравец 15,"Д-Р СПАРТАК СТОЯНОВ МИЛЕВ, Д-Р КАТРИН КОСТАДИНOVA КРАХТОВА-НАСТЕВА","0888707040,0895125771",42.66407,23.6006812,nominatim_free,"МБАЛ Елин Пелин, 15, улица Здравец, Елин Пелин, Софийска, 2100, България",90
МБАЛ-Елин Пелин ЕООД,София - област,ЕЛИН ПЕЛИН,Елин Пелин,ул. Здравец 15,"Д-Р МАЯ МЕТОДИЕВА МИКОВА-ЛУКАНОВА, МАРИЯНА АТАНАСОВА МАНОЛОВА","072560152,0887334797",42.66407,23.6006812,nominatim_free,"МБАЛ Елин Пелин, 15, улица Здравец, Елин Пелин, Софийска, 2100, България",90
МБАЛ-Каварна ЕООД,Добрич,КАВАРНА,Каварна,ул. Васил Левски 36,"ЦВЕТАНКА ИЛИЕВА ДИМИТРОВА, ГЕОРГИ ИВАНОВ ДОНЕВ, ЖИВКО ИВАНОВ ЖЕКОВ, ДЕСИСЛАВ ПЕТРОВ ТАСКОВ, ХАМЗА ВЕЛИЕВ АЛИЕВ, Д-Р ХРИСТИЯН ПЕТРОВ ЗАФИРОВ","0570/83161,0887/991099",43.4249221,28.3394057,nominatim_free,"МБАЛ Каварна, 36, Васил Левски, Каварна, Добрич, 9650, България",100
МБАЛ-Проф. Д-р Параскев Стоянов-АД Ловеч,Ловеч,ЛОВЕЧ,Ловеч,ул. Съйко Съев 27,"ВИКТОР ЕМИЛОВ ТАСЛАКОВ, ТИХОМИР ИВАНОВ БЕНЕВ, ТАТЯНА ГАНЧЕВА БОРИСОВА, Д-Р АНКА ГЕОРГИЕВА АНГЕЛОВА, РУМЯНА ПЕТРОВА НАНОВСКА, АЛДИН ДОЧЕВ НАЧКОВ, ЯНКО ВАСИЛЕВ КОЧЕВ","068/667444,068/603370,068/603371,0895728203,0878792666",43.1326475,24.7063141,nominatim_free,"Многопрофилна болница за активно лечение Проф. Д-р. Параскев Стоянов - Ловеч, 27, Съйко Съев, ж.к. Младост, Ловеч, 5500, България",100
МБАЛ-Своге ЕООД,София - област,СВОГЕ,Своге,ул. Староселска 4,"Д-Р ЛЮБИЦА ИВАНОВА ТОМЧЕВА, ПЛАМЕН КИРИЛОВ КИТАНОВ, ПЕТЯ ИВАНОВА ТОМОВА","0878199647,072622577,0886839753,0726/2577,0726/2174",42.9641771,23.3401984,nominatim_free,"МБАЛ Своге, 4, Староселска, кв. Свиново, кв. Старо село, Своге, Софийска, 2260, България",90
МЕДИЦИНСКИ ЦЕНТЪР ЗА СПЕЦИАЛИЗИРАНА МЕДИЦИНСКА ПОМОЩ - ВИЗУС ООД,Велико Търново,ГОРНА ОРЯХОВИЦА,Горна Оряховица,ул. Хан Крум 5,"СОФИЯ ЦЕЦКОВА ЦВЕТАНОВА-ДИМИТРОВА, ПЕТЯ ИВАНОВА ЦВЕТАНОВА, ПЕТЯ ЦВЕТАНОВА",061864053,43.1230999,25.68658,nominatim_free,"Хан Крум, ж.к. Пролет, Горна Оряховица, Велико Търново, 5100, България",85
МЕДИЦИНСКИ ЦЕНТЪР ЗА СПЕЦИАЛИЗИРАНА ПОМОЩ Д-Р ИВАНОВИ - МЛАДОСТ ООД,Бургас,БУРГАС,Бургас,ул. Александровска 87,Д-Р МЕТОДИ ПЕТКОВ ИВАНОВ,"0896/660772,056/859850,0896777170",42.4957333,27.4716398,nominatim_free,"87, Александровска, Централна градска част, Бургас, 8000, България",90
МЕДИЦИНСКИ ЦЕНТЪР ЗА СПЕЦИАЛИЗИРАНА ПОМОЩ Д-Р ИВАНОВИ - МЛАДОСТ ООД,Бургас,БУРГАС,Бургас,ул. Александровска 78,Д-Р МЕТОДИ ПЕТКОВ ИВАНОВ,"0896/660772,056/859850,0896777170",42.4991611,27.4699686,nominatim_free,"78, Александровска, ж.к. Братя Миладинови, Бургас, 8000, България",90
МЕДИЦИНСКИ ЦЕНТЪР УРОЛОДЖИЯ ЕООД,Хасково,ХАСКОВО,Хасково,ул. Средна Гора 1,ИВАН НИКОЛАЕВ НИКОЛОВ,0888360636,41.93602,25.5541355,nominatim_free,"1, Средна Гора, ж.к. Дружба 1, Хасково, 6300, България",100
МНОГОПРОФИЛНА БОЛНИЦА ЗА АКТИВНО ЛЕЧЕНИЕ - ХАРМАНЛИ ЕООД,Хасково,ХАРМАНЛИ,Харманли,ул. Васил Левски 66,"Д-Р ЗЛАТКА ГЕОРГИЕВА ЧАНКОВА, ДИНЧО ГЕНЕВ ГЕНЕВ, ВОЛОДИ ХРИСТОВ ХРИСТОВ",0373/82189,41.9238475,25.9000459,nominatim_free,"66А, Васил Левски, Харманли, Хасково, 6450, България",100
МНОГОПРОФИЛНА БОЛНИЦА ЗА АКТИВНО ЛЕЧЕНИЕ ХИГИЯ ООД,Хасково,ХАСКОВО,Хасково,ул. Стефан Стамболов 2,"ЯСЕН ГЕОРГИЕВ ЯНЕВ, АТАНАС ПАУНОВ ПАУНОВ, ПЛАМЕН ХРИСТОВ ЙОВЧЕВ","038606231,622535",41.9351081,25.5636784,nominatim_free,"ПМГ ""Акад. Боян Петканчин"", 2, Стефан Стамболов, ж.к. Възраждане, Хасково, 6300, България",100
МНОГОПРОФИЛНА БОЛНИЦА ЗА АКТИВНО ЛЕЧЕНИЕ - ХАСКОВО АД,Хасково,ХАСКОВО,Хасково,бул. Съединение 49,"ГЕОРГИ НИКОЛОВ ГЕЛОВ, ДИМИТЪР ГЕОРГИЕВ ШОПОВ, ТОДОР ДИМИТРОВ ПАНДОВ, СЛАВЧО СОТИРОВ БЛИЗНАКОВ","038/606722,038/606999",41.9338216,25.5663365,nominatim_free,"49, бул. Съединение, Източна индустриална зона, ж.к. Изгрев, Хасково, 6300, България",90
МНОГОПРОФИЛНА БОЛНИЦА ЗА АКТИВНО ЛЕЧЕНИЕ-ПОМОРИЕ ЕООД,Бургас,ПОМОРИЕ,Поморие,ул. Проф.Парашкев Стоянов 1,"ЦВЕТОМИР ЦВЕТКОВ, ЦВЕТОМИР КИРКОВ ЦВЕТКОВ, АЛЕКСАНДЪР ГРИГОРОВ КРЪСТАНОВ, РАДОСТИН АТАНАСОВ ИВАНОВ, ЖЕНЯ НЕДЕЛЧЕВА КАРАИЛИЕВА-ГЕОРГИЕВА, Д-Р КИРИЛ АСЕНОВ ХИНОВ, ИЛКО ТОДОРОВ ИЛЧЕВ","0882420145,0596/22730,0877/276225,0887/215743",42.5736185,27.6344355,nominatim_free,"Професор Парашкев Стоянов, кв. Свобода, Поморие, Бургас, 8201, България",85
Многопрофилна болница за активно лечение Кардиолайф ООД,Ловеч,ЛОВЕЧ,Ловеч,бул. Мизия 5,"ТИХОМИР ИВАНОВ БЕНЕВ, ИЛИЯНА МАРИНОВА КОСТОВА, Д-Р ГАЛИНА ВИДОЛОВА БАЛАБАНОВА","068/602844,0897001041",43.1570943,24.7162691,nominatim_free,"5, бул. Мизия, ж.к. Здравец, Ловеч, 5500, България",90
ОЧЕН МЕДИЦИНСКИ ЦЕНТЪР ХАСКОВО ООД,Хасково,ХАСКОВО,Хасково,ул. Георги Кирков 24,ПРОФ. Д-Р ДИМИТЪР НИКОЛОВ ДЖЕЛЕБОВ,042601460,41.9362141,25.5540806,nominatim_free,"24, Георги Кирков, ж.к. Дружба 1, Хасково, 6300, България",100
ОЧЕН МЕДИЦИНСКИ ЦЕНТЪР ХАСКОВО ООД,Хасково,ХАСКОВО,Хасково,ул. Хаджи Димитър 2,ПРОФ. Д-Р ДИМИТЪР НИКОЛОВ ДЖЕЛЕБОВ,042601460,41.9334369,25.5546272,nominatim_free,"2, Хаджи Димитър, Хасково център, Хасково, 6300, България",100
ОЧЕН МЕДИЦИНСКИ ЦЕНТЪР ХАСКОВО ООД,Хасково,ДИМИТРОВГРАД,Димитровград,бул. България 2,ПРОФ. Д-Р ДИМИТЪР НИКОЛОВ ДЖЕЛЕБОВ,042601460,42.056563,25.592106,nominatim_free,"2, България, кв. Славянски, Димитровград, Хасково, 6400, България",100
СБАЛББ-Троян ЕООД,Ловеч,ТРОЯН,Троян,ул. Васил Левски 253,ЦВЕТОМИЛА ВАСИЛЕВА ДУДЕВСКА-ВАЧЕВСКА,0670/64985,42.897565,24.7110784,nominatim_free,"Специализирана болница за активно лечение на белодробни болести - Троян, 253, Васил Левски, ж.к. Младост, Троян, Ловеч, 5600, България",100
СБАЛОЗ -София област ЕООД,София (столица),ГР.СОФИЯ,София,Бул. Столетов 67,"ЯНКО ВАСИЛЕВ КОЧЕВ, Д-Р ПЛАМЕН ТРАЙЧЕВ ИВАНОВ, Д-Р ДИАНА ЙОРДАНОВА НЕДЯЛКОВА",028013923,42.7131935,23.3120729,nominatim_free,"МБАЛ „Княгиня Клементина“ - София ЕАД, 67А, бул. Ген. Столетов, ж.к. Банишора, София, Сердика, Столична, София-град, 1233, България",90
СБАЛПФЗ - София област ЕООД,София (столица),ГР.СОФИЯ,София,бул. Сливница 309,"Д-Р КИРИЛ РАШКОВ ПАЛАВЕЕВ, Д-Р ВЕЛИЧКО ДИМИТРОВ МАРИНОВ","0899247939,029312353",42.7061437,23.3333538,nominatim_free,"309, бул. Сливница, Център, София, Сердика, Столична, София-град, 1202, България",90
СБПЛР-Костенец ЕООД,София - област,КОСТЕНЕЦ,Костенец,ул. Цариградско шосе 56,Д-Р МАРИЯ АНГЕЛОВА ХРИСТОСКОВА-ЯНКОВА,0889306197,42.3071146,23.8620728,nominatim_free,"56, Цариградско шосе, кв. Чавдарци, Костенец, Долна Василица, Костенец, Софийска, 2030, България",100
СПЕЦИАЛИЗИРАНА БОЛНИЦА ЗА АКТИВНО ЛЕЧЕНИЕ ПО ОНКОЛОГИЯ - ХАСКОВО ЕООД,Хасково,ХАСКОВО,Хасково,бул. Съединение 49,"МАТЕЙ АСЕНОВ МАТЕЕВ, Д-Р ВЕНКО ИВАНОВ БАЛАБАНОВ, Д-Р ЛЮБОМИР ВЪЛКОВ ВАСИЛЕВ, ИВАН ТОДОРОВ ИВАНОВ",038664373,41.9338216,25.5663365,nominatim_free,"49, бул. Съединение, Източна индустриална зона, ж.к. Изгрев, Хасково, 6300, България",90
СПЕЦИАЛИЗИРАНА БОЛНИЦА ЗА РЕХАБИЛИТАЦИЯ НЕСЕБЪР АД,Бургас,НЕСЕБЪР,Несебър,ул. Хан Крум 31,"Д-Р ПЛАМЕН МИХАЙЛОВ ЛАКОВ, Д-Р ЦВЕТАН ДИМИТРОВ ГЕРГОВ, ГЕОРГИ КОЛЕВ КОЛЕВ, Д-Р ГАЛИНА ТРУФАНОВА КЪРЧЕВА, НИКОЛАЙ ГЕОРГИЕВ КОЛЕВ","0876/022232,0554/30123",42.6594144,27.7279799,nominatim_free,"Хан Крум, кв. Христо Кудев, Несебър, Бургас, 8231, България",85
СПЕЦИАЛИЗИРАНА БОЛНИЦА ЗА РЕХАБИЛИТАЦИЯ НЕСЕБЪР АД,Бургас,НЕСЕБЪР,Несебър,кв. Перла 20,"Д-Р ПЛАМЕН МИХАЙЛОВ ЛАКОВ, Д-Р ЦВЕТАН ДИМИТРОВ ГЕРГОВ, ГЕОРГИ КОЛЕВ КОЛЕВ, Д-Р ГАЛИНА ТРУФАНOVA КЪРЧЕВА, НИКОЛАЙ ГЕОРГИЕВ КОЛЕВ","0876/022232,0554/30123",42.6576036,27.7031646,nominatim_free,"20, Kv. Cherno More 2, кв. Черно море, Несебър, Бургас, 8230, България",80
СПЕЦИАЛИЗИРАНА БОЛНИЦА ЗА РЕХАБИЛИТАЦИЯ АЙЛИН ЕООД,Хасково,МИНЕРАЛНИ БАНИ,Минерални Бани,ул. Любен Каравелов 8,АНЕЛИЯ ТОДОРОВА ТЕНЧЕВА,037389129,41.9373737,25.3468274,nominatim_free,"Айлин, 8, Любен Каравелов, Минерални бани, Хасково, 6343, България",100
УНИВЕРСИТЕТСКА МНОГОПРОФИЛНА БОЛНИЦА ЗА АКТИВНО ЛЕЧЕНИЕ СВЕТА МАРИНА-ПЛЕВЕН ООД,Плевен,ПЛЕВЕН,Плевен,ул. Цар Симеон 23,"ИВАЛЕНА МИНКОВА ВАСИЛЕВА, ПРОФ.Д-Р ГРИГОР АНГЕЛОВ ГОРЧЕВ","064/805313,064/805666",43.6472778,24.6926315,nominatim_free,"23, Цар Симеон, Гулянци, Плевен, България",90
УНИВЕРСИТЕТСКА МНОГОПРОФИЛНА БОЛНИЦА ЗА АКТИВНО ЛЕЧЕНИЕ ДЕВА МАРИЯ ЕООД,Бургас,БУРГАС,Бургас,ул. Александър Стамболийски 32,"Д-Р ХРИСТО КРЪСТЕВ ЯКИМОВ, ДАНИЕЛА ПРОДАНОВА БОЗДУКОВА, ДИМИТЪР ЕСЕНОВ ИЛИЕВ, СТЕФАН ИВАНОВ КАСАБОВ, ГЕОРГИ МАРИНОВ ГЕОРГИЕВ, Д-Р СНЕЖА ЗГУРОВА СТРАНДЖЕВА, ХРИСТО ДОБРЕВ ДОБРЕВ","056/896273,056/896262,0884/257744",42.4958066,27.465197,nominatim_free,"32, Александър Стамболийски, ж.к. Възраждане, Бургас, 8000, България",100
ЦЕНТЪР ЗА КОЖНО-ВЕНЕРИЧЕСКИ ЗАБОЛЯВАНИЯ-ВЕЛИКО ТЪРНОВО ЕООД,Велико Търново,ВЕЛИКО ТЪРНОВО,Велико Търново,ул. Бузлуджа 1,"ТЕОДОРА ЦЕКОВА ЧОЛАКОВА, РУМЯНА СТОЯНОВА АНДРЕЕВА, СИЛВИЯ ДИМОВА ГОРАНОВА","062/623598,062/622110",43.1095857,25.7137869,nominatim_free,"Бузлуджа, Лясковец, Велико Търново, 5140, България",85
АМЦСМП Очна клиника Света Петка АД,Варна,ВАРНА,Варна,ул. Проф. д-р Георги Георгиев 4,Д-Р ТОШО ВОЙЧЕВ МИТОВ,"052611130,052611131",43.2262847,27.9333361,nominatim_free,"Очна клиника ""Св. Петка"", 4, Проф. д-р Георги Георгиев, м-т Сотира, Варна, Приморски, Варна, 9000, България",100
АМЦСМП Очна клиника Света Петка АД,Варна,ВАРНА,Варна,ул. Иван Драсов 12,Д-Р ТОШО ВОЙЧЕВ МИТОВ,"052611130,052611131",43.20975,27.9161888,nominatim_free,"12, Иван Драсов, Гръцката махала, Център, Варна, Одесос, Варна, 9000, България",100
АМЦСМП СВЕТА ПЕТКА ООД,Варна,ВАРНА,Варна,ул. Иван Драсов 12,ДОЦ. Д-Р ТОШО ВОЙЧЕВ МИТОВ,"052611130,052611131",43.20975,27.9161888,nominatim_free,"12, Иван Драсов, Гръцката махала, Център, Варна, Одесос, Варна, 9000, България",100
АМЦСМП СВЕТА ПЕТКА ООД,Варна,ВАРНА,Варна,ул. Проф. д-р Георги Георгиев 4,ДОЦ. Д-Р ТОШО ВОЙЧЕВ МИТОВ,"052611130,052611131",43.2262847,27.9333361,nominatim_free,"Очна клиника ""Св. Петка"", 4, Проф. д-р Георги Георгиев, м-т Сотира, Варна, Приморски, Варна, 9000, България",100
АМЦСМП СВЕТА ПЕТКА ООД,Варна,ВАРНА,Варна,бул. Сливница 40,ДОЦ. Д-Р ТОШО ВОЙЧЕВ МИТОВ,"052611130,052611131",43.2082043,27.9159574,nominatim_free,"40, бул. Сливница, 4-ти микрорайон, Варна, Одесос, Варна, 9000, България",90
АМЦСМП Света Петка Ай Кеър ЕООД,Варна,ВАРНА,Варна,ул. Иван Драсов 10А,ДОЦ. Д-Р ТОШО ВОЙЧЕВ МИТОВ,"052611130,052611131",43.2097098,27.9159466,nominatim_free,"10a, Иван Драсов, Гръцката махала, Център, Варна, Одесос, Варна, 9000, България",80
АМЦСМП Света Петка Ай Кеър ЕООД,Варна,ВАРНА,Варна,ул. Иван Драсов 12,ДОЦ. Д-Р ТОШО ВОЙЧЕВ МИТОВ,"052611130,052611131",43.20975,27.9161888,nominatim_free,"12, Иван Драсов, Гръцката махала, Център, Варна, Одесос, Варна, 9000, България",100
АМЦСМП Света Петка Ай Кеър ЕООД,Варна,ВАРНА,Варна,ул. Проф. д-р Георги Георгиев 4,ДОЦ. Д-Р ТОШО ВОЙЧЕВ МИТОВ,"052611130,052611131",43.2262847,27.9333361,nominatim_free,"Очна клиника ""Св. Петка"", 4, Проф. д-р Георги Георгиев, м-т Сотира, Варна, Приморски, Варна, 9000, България",100
АСМП-МЦ-ОКУЛУС-КУШИНОВА ЕООД,Плевен,ПЛЕВЕН,Плевен,ул. Васил Левски 124,"Д-Р ЙОРДАНКА ГЕОРГИЕВА МАТЕЕВА, Д-Р РУМЕН ДИМИТРОВ МИНКОВ",064/837711,43.6494058,24.6916795,nominatim_free,"124, Васил Левски, Гулянци, Плевен, България",100
Аджибадем Сити Клиник МЦ Варна ЕООД,Варна,ВАРНА,Варна,ул. Алеко Константинов 3-5,"Д-Р КАЛИН ЦОНЕВ ЦОНЕВ, ВЕНЕЛИНА ФИЛИПОВА АТАНАСОВА, МЕХМЕТ ОРКУН САРЪБЪЙЪК","070033900,052953251,0892202080",43.2109401,27.9070448,nominatim_free,"Хирургическа Болница Проф. Темелков, 3-5, Алеко Константинов, Колхозен пазар, Варна, Одесос, Варна, 9000, България",100
Аджибадем Сити Клиник МЦ Варна ЕООД,Варна,ВАРНА,Варна,ул. Брегалница 1,"Д-Р КАЛИН ЦОНЕВ ЦОНЕВ, ВЕНЕЛИНА ФИЛИПОВА АТАНАСОВА, МЕХМЕТ ОРКУН САРЪБЪЙЪК","070033900,052953251,0892202080",43.2174275,27.9160642,nominatim_free,"Аджибадем Сити Клиник, 1, Брегалница, Цветен квартал, Варна, Приморски, Варна, 9002, България",90
ВМА- Болница за продължително лечение и рехабилитация- Хисаря,Пловдив,ХИСАРЯ,Хисаря,ул. Илин Паунов 1,"Д-Р АЛЕКСАНДЪР ТОНЕВ АЛЕКСАНДРОВ, Д-Р БОЖКО ИВАНОВ БОЖКОВ","0337/60201,0337/62089",42.5007957,24.7157376,nominatim_free,"Илин Паунов, ж.к. Орфей, Хисаря, Пловдив, 4180, България",95
ДИАГНОСТИЧНО-КОНСУЛТАТИВЕН ЦЕНТЪР 1 ЯМБОЛ ЕООД,Ямбол,ЯМБОЛ,Ямбол,ул. Христо Смирненски 2,"АНТОН СТОЯНОВ ИВАНОВ, ВЕНЦИСЛАВ ИВАНОВ СЛАВОВ, ЕЛЕОНОРА МИТЕВА КОСТАДИНОВА","046600020,046669027,0893303480",42.1511409,26.8119231,nominatim_free,"Христо Смирненски, Болярово, Ямбол, 8720, България",95
ДИАГНОСТИЧНО-КОНСУЛТАТИВЕН ЦЕНТЪР 1 ЯМБОЛ ЕООД,Ямбол,ЯМБОЛ,Ямбол,ул. Ивайло 1,"АНТОН СТОЯНОВ ИВАНОВ, ВЕНЦИСЛАВ ИВАНОВ СЛАВОВ, ЕЛЕОНОРА МИТЕВА КОСТАДИНОВА","046600020,046669027,0893303480",42.4799688,26.5001796,nominatim_free,"Д-р Димитър Брънков, 1, Ивайло, кв. Каргон, Ямбол, 8601, България",90
ДИАГНОСТИЧНО-КОНСУЛТАТИВЕН ЦЕНТЪР 1 ЯМБОЛ ЕООД,Ямбол,ЯМБОЛ,Ямбол,ул. Българка 2,"АНТОН СТОЯНОВ ИВАНОВ, ВЕНЦИСЛАВ ИВАНОВ СЛАВОВ, ЕЛЕОНОРА МИТЕВА КОСТАДИНОВА","046600020,046669027,0893303480",42.4838631,26.4963944,nominatim_free,"СХБАЛ Св. Йоан Рилски, 2, Българка, ж.к. Златен рог, Ямбол, 8600, България",90
ДКЦ ІІ-ПЛЕВЕН ЕООД,Плевен,ПЛЕВЕН,Плевен,ул. Сан Стефано 1,Д-Р МАРИАНА ПЕТРОВА ЛАЗАРОВА-ИВАНОВА,"064/807001,064888222",43.4069781,24.6199211,nominatim_free,"Сан Стефано, 9-ти квартал, Централна градска част, Плевен, 5801, България",85
ДКЦ ІІ-ПЛЕВЕН ЕООД,Плевен,ПЛЕВЕН,Плевен,жк Дружба бл 112 ет 1,Д-Р МАРИАНА ПЕТРОВА ЛАЗАРОВА-ИВАНОВА,"064/807001,064888222",43.4013341,24.6347907,nominatim_free,"ж.к. Дружба 1, ж.к. Дружба, Плевен, 5703, България",80
ДКЦ СВЕТИ ПАНТАЛЕЙМОН ООД,Плевен,ПЛЕВЕН,Плевен,ул. Хан Крум 2,"Д-Р ЕЛИЗА ЛЮБЕНОВА ГЕОРГИЕВА, Д-Р ЙОРДАН ГЕОРГИЕВ ГЕОРГИЕВ",064/872020,43.6424128,24.6905661,nominatim_free,"2, Хан Крум, Гулянци, Плевен, България",90
ДЦ ХИПОКРАТ ЕООД,Варна,ВАРНА,Варна,ул. Дубровник 58,"ДОЦ. Д-Р МИХАИЛ ЦАНЕВ ДЕЛИЙСКИ, Д.М, АДВ. ПОЛЯ ВЕЛИКОВА ДИМИТРОВА-ЧЕНЕВА, ДАРИН РУСЕВ ЧЕНЕВ",0888814550,43.2263937,27.9257952,nominatim_free,"Gabieli Delivery Services, 58, Дубровник, кв. Левски, Варна, Приморски, Варна, 9010, България",90
Дъчмед Диализа България-ДЦ Пазарджик,Пазарджик,ПАЗАРДЖИК,Пазарджик,ул. Царица Йоанна 6,"ПЛАМЕН АСЕНОВ МАРТЕВ, ЗДРАВКО ЕМИЛОВ КРАЕВ, ИВАН СТЕФАНОВ ХАРИЗАНОВ","0884 425 455,034499220",42.177566,24.3201938,nominatim_free,"ОДЕТ ИТ-И.ТОДОРОВ, 6, Царица Йоанна, ж.к. Царица Йоана, Пазарджик, 4400, България",100
КОЦ Велико Търново ЕООД,Велико Търново,ВЕЛИКО ТЪРНОВО,Велико Търново,ул. Бузлуджа 1,"Д-Р ИВАН ИЛИЕВ НИКОЛОВ, Д-Р МАРИЯ ИВАНОВА РАЧЕВА",062620249,43.1095857,25.7137869,nominatim_free,"Бузлуджа, Лясковец, Велико Търново, 5140, България",85
КОЦ Враца ЕООД,Враца,ВРАЦА,Враца,бул. Втори юни 68,"Д-Р ГЕОРГИ ЙОРДАНОВ ЕЗЕКИЕВ, Д-Р ЖУЛИЕТА ЦВЕТКОВА ЦОЛОВА, Д-Р ГРИГОР ТОМОВ ГРИГОРОВ",092/622549,43.1981251,23.5597574,nominatim_free,"Комплексен онкологичен център Враца, 68, бул. Втори юни, кв. Медковец, Враца, 3001, България",90
КОЦ-ШУМЕН ЕООД,Шумен,ШУМЕН,Шумен,ул. Васил Априлов 63,"СВИЛЕН СТЕФАНОВ АРНАУДОВ, СОТИР СТОЯНОВ КАРАНИКОЛОВ","054/800832,054/800746",43.2755071,26.9171495,nominatim_free,"МБАЛ-Шумен, 63, Васил Априлов, Азалия, м. Бялата пръст, Шумен, 9705, България",100
МБАЛ Професор доктор Георги Златарски ЕООД,Видин,БЕЛОГРАДЧИК,Белоградчик,ул. Христо Ботев 34,"ЛИЛИЯ ИВАНОВА НЕСТОРОВА-ТРИФОНОВА, Д-Р ПЕТЯ НИКОЛОВА РУСКОВА, ПЕТЯ НИКОЛОВА РУСКОВА, Д-Р ВИОЛЕТА ИЛИЕВА ДОЧКОВА, Д-Р СОНЯ ИВАНОВА АНГЕЛОВА",0936/53360,43.6261889,22.6922685,nominatim_free,"МБАЛ ""Проф. Георги Златарски"", 34, Христо Ботев, Belogradtschik, ж.к. Здравец, Белоградчик, Видин, 3900, България",100
МБАЛ - Д-Р АСЕН ВЕЛЕВ ЕООД,Благоевград,РАЗЛОГ,Разлог,УЛ. СВ. СВ. КИРИЛ И МЕТОДИЙ 2,"МАГДАЛЕНА НИКОЛОВА КОЦАКОВА, БОЖИДАР АСЕНОВ ВЕЛЕВ, РАДКА ВЛАДИМИРОВА БОЖИКОВА","0747/89282,0896/787799",41.8903333,23.4593266,nominatim_free,"Св.Св.Кирил и Методий, кв. Васил Левски, Разлог, Благоевград, 2760, България",84
МБАЛ - ШУМЕН АД,Шумен,ШУМЕН,Шумен,ул. Васил Априлов 63,"ДИМИТЪР ГЕОРГИЕВ КОСТОВ, ЮЛИЯ ДИМИТРОВА ИЛИЕВА, АТАНАС ГЕОРГИЕВ АТАНАСОВ, НЕДКО ПЛАМЕНОВ ТОДОРОВ, ВИКТОР МИНЧЕВ ДИМИТРОВ, ВАЛЕНТИН ТОДОРОВ СЕМКОВ","054/800751,054/855755,054/800733",43.2755071,26.9171495,nominatim_free,"МБАЛ-Шумен, 63, Васил Априлов, Азалия, м. Бялата пръст, Шумен, 9705, България",100
МБАЛ Благоевград АД,Благоевград,БЛАГОЕВГРАД,Благоевград,УЛ. СЛАВЯНСКА 60,"ДИМИТЪР ГЕОРГИЕВ ДИМИТРОВ, МАГДАЛЕНА СТЕФАНОВА СИМЕОНОВА, ПЕТЪР САШОВ ГАЙДАРСКИ, ЕКАТЕРИНА ИЛИЕВА ЧАКАЛСКА, КРАСИМИР ГЕОРГИЕВ МИХАЙЛОВ, Д-Р ВЛАДИМИР ВИТКОВ ПАНДЕВ, ОГНЯН СТЕФАНОВ МИТЕВ","073/8292329,073/884129,0879/535253",42.0257371,23.0928539,nominatim_free,"ДМСГД-Благоевград, 60, Славянска, кв. Баларбаши, Благоевград, 2700, България",100
МБАЛ ВАРНА КЪМ ВМА,Варна,ВАРНА,Варна,БУЛ. ХРИСТО СМИРНЕНСКИ 3,"ХРИСТО СТОЯНОВ БОЗОВ, ПОЛК. ПРОФ. Д-Р ИВАЙЛО ПЕТРОВ ВЪЖАРОВ, ДМ","052386210,052386334",43.2255758,27.8971827,nominatim_free,"бл. 3, бул. Христо Смирненски, Северна промишлена зона, ж.к. Победа, Варна, Младост, Варна, 9025, България",100
МБАЛ ВЕЛИМЕД ЕООД,Пазарджик,ВЕЛИНГРАД,Велинград,бул. Съединение 49,"ГЕОРГИ АНГЕЛОВ ДОШЕВ, ЙОРДАНКА ТОДОРОВА САВОВА, ЙОРДАНКА ТОДОРОВА САВОВА, ТОДОР ВАСИЛЕВ УШЕВ, КОСТАДИН НИКОЛОВ ПАУНОВ",0359/54298,42.0220417,23.9891152,nominatim_free,"49, Съединение, кв. Чепино, Велинград, Пазарджик, 4600, България",100
МБАЛ Д-Р БРАТАН ШУКЕРОВ АД,Смолян,СМОЛЯН,Смолян,бул. България 2,"МАРИН ДИМИТРОВ ДАРАКЧИЕВ, АНТОН ГОРЧЕВ ЛАЛОВ, ЕЛЕНА ТОШЕВА СЛАВКОВА-СИДЕНКО, ДОЦ. Д-Р ВЛАДИСЛАВ БОРИСОВ ИВАНОВ, МАРИН ДИМИТРОВ ДАРАКЧИЕВ, НИНА САШЕВА ШЕХОВА-ЯНКОВА","0301/62395,0301/62549",41.5734342,24.7186627,nominatim_free,"МБАЛ ""Д-р Братан Шукеров"", 2, бул. България, ж.к. Нов център, Смолян, 4700, България",90
МБАЛ Д-Р ХРИСТО СТАМБОЛСКИ ЕООД,Стара Загора,КАЗАНЛЪК,Казанлък,ул. Старозагорска 16,Д-Р КЕТИ ПЕТРОВА МАНАЛОВА-ВЛАДКОВА,"0431/65300,0431/65665",42.6208524,25.4033733,nominatim_free,"МБАЛ ”Д-р Христо Стамболски”, 16, Старозагорска, Казанлък, Стара Загора, 6102, България",90
МБАЛ Д-р Иван Селимински - Сливен АД,Сливен,СЛИВЕН,Сливен,ул. Сергей Румянцев 2; бул. Хаджи Димитър 41а; ул. Стефан Караджа 2; ул. Криволак 13; НК Сливенски минерални бани; бул. Христо Ботев 1,"Д-Р ВАСИСЛАВ ПЕТРОНИЕВ ПЕТРОВ, Д-Р МЕТОДИ БОРИСОВ ПОПСТОЙКОВ, Д-Р ЙОРДАН НИКОЛАЕВ КОТОВ","044/611701,044/624326",42.6991087,25.8612628,nominatim_free,"Сергей Румянцев, Козарево, Твърдица, Сливен, 8891, България",95
МБАЛ Д-р Тота Венкова АД Габрово,Габрово,ГАБРОВО,Габрово,ул. д-р Илиев-Детския 1,"МИНКО ЦВЯТКОВ МИХОВ, БОЖИДАР БОГОМИЛОВ ПАРАЛЧЕВ, НЕЛИ ИВАНОВА САВЧЕВА","066/800243,066/808911",42.8705166,25.3076052,nominatim_free,"1, Д-р Илиев - Детския, кв. Боровото, кв. Йонково, Габрово град, Габрово, 5300, България",80
МБАЛ ДР АТАНАС ДАФОВСКИ АД,Кърджали,КЪРДЖАЛИ,Кърджали,бул. Беломорски 53,ТОДОР ДИМИТРОВ ЧЕРКЕЗОВ,"0361/65811,0361/65809",41.6457771,25.3753548,nominatim_free,"МБАЛ „ Д-р Атанас Дафовски"", 53, бул. Беломорски, Център, Кърджали, 6600, България",90
МБАЛ ДР СЕРГЕЙ РОСТОВЦЕВ ЕООД,Кърджали,МОМЧИЛГРАД,Момчилград,ул. Стефан Караджа 1,"ДЖАН САДУЛЛА МАЧАН, МЛАДЕН АСЕНОВ КЪРОВ","036316109,03631/8118",41.5305399,25.4122335,nominatim_free,"МБАЛ ""Д-р Сергей Ростовцев"", 1, Стефан Караджа, кв. 11, Момчилград, Кърджали, 6800, България",100
МБАЛ Майчин дом-Варна ЕООД,Варна,ВАРНА,Варна,ул. Мир 1,Д-Р МАКСИМ ИСАК ЯКОВ,"052/383850,052/383858",43.2210538,27.9288098,nominatim_free,"бл. 1, Мир, кв. Левски, Варна, Приморски, Варна, 9026, България",80
МБАЛ Ниамед ООД гр. Стара Загора,Стара Загора,СТАРА ЗАГОРА,Стара Загора,ул. Стефан Стамболов 29,"Д-Р НИКОЛАЙ ГЕОРГИЕВ ХРИСТОВ, ИВАН ДИНЕВ ИВАНОВ, СЕВДАЛИНКА ДИМИТРОВА ПЕНЧЕВА, Д-Р МАРИЯ ИВАНОВА АПОСТОЛОВА","042/611611,042/611610",42.4249167,25.6175503,nominatim_free,"Частна МБАЛ ""НИА МЕД"", 29, Стефан Стамболов, кв. Възраждане, Стара Загора, 6000, България",100
МБАЛ Р.Ангелова АД,Перник,ПЕРНИК,Перник,ул. Брезник 2,"СИМЕОН ВАСИЛЕВ СИМЕОНОВ, ЛЮДМИЛ СТАНКОВ НИКОЛОВ, ВЯРА МИХАЙЛОВА ЦЕРОВСКА, ИВАН ГЕОРГИЕВ ЕВЛОГИЕВ, АНАТОЛИ ВЕРЧОВ МИТОВ, ВАЛЕРИ ИВАНОВ ДИМИТРОВ, АНАТОЛИ ВЕРЧОВ МИТОВ, ЕМИЛ ЕМИЛОВ НЕНКОВ, ЯВОР НИКОЛАЕВ ДРЕНСКИ",076/601360,42.6158515,23.0331867,nominatim_structured,"Брезник, Перник Център, Перник, 2300, България",85
МБАЛ СВ. ЙОАН РИЛСКИ ООД,Ямбол,ЯМБОЛ,Ямбол,ул. Българка 2,"АНТОАНЕТА СЛАВЧЕВА АНТОНОВА-МАРИНОВА, ИБРЯМ АЛИЕВ МУСТАФОВ, ВЛАДИМИР КОЙЧЕВ ДЕМИРЕВ, НУРТЕН ОСМАНОВА ШЕКЕРОВА","046633031,046633032,046633033",42.4838631,26.4963944,nominatim_free,"СХБАЛ Св. Йоан Рилски, 2, Българка, ж.к. Златен рог, Ямбол, 8600, България",90
МБАЛ СВЕТА АННА-ВАРНА АД,Варна,ВАРНА,Варна,БУЛ. ЦАР ОСВОБОДИТЕЛ 100,"Д-Р КРАСИМИР ПЕТРОВ ПЕТРОВ, ЖАН ЕМИЛОВ ДОРЕВСКИ, ЛИДИЯ ДУНОВА ПЕТКОВА, Д-Р ВЕСЕЛИН НИКОЛОВ ИВАНОВ, ПРОФ. Д-Р ДИКО ДРАГАНОВ БОШНАКОВ, Д-Р ГАЛЕН ДИМИТРОВ ШИВАРОВ, ИРИНА ГЕОРГИЕВА ВЕЛИНОВА, Д-Р НИКОЛАЙ ПЕТРОВ КОЛАРОВ",052/648257,43.2136534,27.9182217,nominatim_free,"СБАЛ по кардиология, 100, бул. Цар Освободител, Цветен квартал, Варна, Приморски, Варна, 9000, България",100
МБАЛ СВЕТИ ИВАН РИЛСКИ - 2003 ООД,Кюстендил,ДУПНИЦА,Дупница,ул. Иван Вазов 26,ЕНИ МИЛЧОВ ЛЕФТЕРОВ,0701/59500,42.3022572,23.1610483,nominatim_free,"Иван Вазов, Булгартабак - Бончук, Червен брег, Дупница, Кюстендил, 2620, България",95
МБАЛ СЕРДИКАМЕД ЕООД,София (столица),ГР.СОФИЯ,София,ул. Дамян Груев 6,"Д-Р МЕТОДИ ВАНГЕЛОВ ЯНКОВ, Д-Р МАРИЯ МЕТОДИЕВА ЯНКОВА, Д-Р ТИНКА АНГЕЛОВА ДАНЧЕВА","0888949958,02/9049100",42.696685,23.3138139,nominatim_free,"6, Дамян Груев, Център, София, Красно село, Столична, София-град, 1303, България",100
МБАЛ ТРАКИЯ ЕООД,Стара Загора,СТАРА ЗАГОРА,Стара Загора,бул. Патриарх Евтимий 84 и ул. Дунав 1,Д-Р ИВАН МИЛАНОВ ЗЛАТКОВ,"042/988988,042/987777",42.6186673,25.3884656,nominatim_free,"1, Патриарх Евтимий, ж.к. Васил Левски, Казанлък, Стара Загора, 6100, България",100
МБАЛ Теодоси Витанов ЕООД Трявна,Габрово,ТРЯВНА,Трявна,ул. Лясков дял 1,"ТАТЯНА СТЕФАНОВА СТАНЧЕВА, СВЕТЛА ИВАНОВА БРЪНЕКОВА","0677/62167,0677/2104",42.8685509,25.4881026,nominatim_free,"1А, Лясков дял, кв. Качаунска махала, кв. Хитревци, Койчовци, Трявна, Габрово, 5350, България",90
МБАЛ Уни Хоспитал ООД,Пазарджик,ПАНАГЮРИЩЕ,Панагюрище,УЛ. ГЕОРГИ БЕНКОВСКИ 100,"ЦВЕТОЛЮБ МИТЕВ МАРИНОВ, РУМЯНА ТОДОРОВА ВЪЛКОВА, СИЛВИ КИРИЛОВ ПЕТРОВ, АНГЕЛ ПЕТРОВ ПРОДАНОВ, КРАСИМИРА СПАСОВА ЧАЧОВА-РАНЧЕВА, ЯВОР НИКОЛАЕВ ДРЕНСКИ, СНЕЖАНА ТОДОРОВА ТУХЧИЕВА, ЙОРДАН ТОДОРОВ БОЯДЖИЕВ, СТЕФАЛИН АЛЕКСАНДРОВ ПОПОВ, МАЯ ДИМИТРОВА ВЛАЙКОВА, ЛЮБОМИР ДИМИТРОВ ЙОРДАНОВ, БИЛЯНА НИКОЛАЕВА ПЕНЕВА - СТОЯНОВА, ЛУЧИЯ АЛЕКСАНДРОВА ДОБРЕВА, БОРИСЛАВ ГЕОРГИЕВ АЦЕВ, МИХАИЛ ПАНАЙОТОВ ХРИСТОВ","0357/62372,0357/67074,0357/88542",42.4933375,24.1854482,nominatim_free,"МБАЛ ""Уни Хоспитал"", 100, Георги Бенковски, Панагюрище, Пазарджик, 4500, България",100
МБАЛ Хаджи Димитър ООД,Сливен,СЛИВЕН,Сливен,бул. Хаджи Димитър 19,"Д-Р ПЕНКО МИНЧЕВ ПЕНКОВ, МИЛЕН ПЕНКОВ ПЕНКОВ, ГЕРГАНА ПЕНКОВА АЛЕКСАНДРОВА",044/618502,42.6783029,26.3189413,nominatim_free,"19, бул. Хаджи Димитър, Център, кв. Клуцохор, Сливен, 8800, България",100
МБАЛ Христо Ботев АД Враца,Враца,ВРАЦА,Враца,бул. Втори юни 66,"Д-Р КЕТИ ДИТКОВА ЦЕНОВА-СРЕДКОВА, ВЛАДИСЛАВ ХРИСТОВ ИВАНОВ, ОРЛИН ВЕСЕЛИНОВ ЦВЕТКОВ, СВЕТОЗАР БОРИСОВ ЛУКАНОВ, Д-Р ПЕТЪР ЙОРДАНОВ КЕРЕМЕДЧИЕВ, ЕВГЕНИ ГЕОРГИЕВ ЛЮБЕНОВ","092/665110, 0884709012",43.1963546,23.5590234,nominatim_free,"МБАЛ „Христо Ботев"", 66, бул. Втори юни, кв. Химик, Враца, 3001, България",90
МБАЛ Централ онко хоспитал ООД Пловдив,Пловдив,ПЛОВДИВ,Пловдив,бул. Васил Априлов 20,"Д-Р НАДЕЖДА АСЕНОВА КРУМОВА-МИХАЙЛОВА, Д-Р ЗАПРИН ТОДОРОВ ПЕПЕОВ","032/990007, 0877734307",42.1615858,24.7297188,nominatim_free,"бул. Васил Априлов, Захарна фабрика, Северен, Пловдив, 4020, България",95
МБАЛ-Пловдив към ВМА София,Пловдив,ПЛОВДИВ,Пловдив,бул. Христо Ботев 81,"АНГЕЛ ТЕОФИЛОВ ГОЗМАНОВ, АНГЕЛ ХАРАЛАМБИЕВ ПЕЕВ, АТАНАС ЙОРДАНОВ КАЛЧЕВ, ЕЛЕНА ЛЮБОМИРОВНА ОПИНЧЕВА","032/609865, 032/609878, 032/631365, 032/609800",42.1363689,24.7570999,nominatim_free,"Гирос Оригинал, 81, бул. Христо Ботев, Военна болница, Централен, Пловдив, 4000, България",100
МБАЛ-Раковски ЕООД,Пловдив,РАКОВСКИ,Раковски,ул. Михаил Добромиров 1,"Д-Р ИВАН ЙОСИФОВ ТОМБАШКИ, ГЕРГАНА ТОДОРОВА МАНОЛОВА, ПЕТЪР СТОЯНОВ МУХОВСКИ","03151/2445, 03151/2197",42.2822271,24.9404338,nominatim_free,"Михаил Добромиров, Квартал Генерал Николаево, Раковски, Пловдив, 4150, България",95
МБАЛ-ГУЛЯНЦИ ЕООД,Плевен,ГУЛЯНЦИ,Гулянци,ул. Васил Левски 34,Д-Р АНДРИАН МИТКОВ ЯКОВ,"06561/3079, 0887519571",43.6395594,24.6957082,nominatim_free,"МБАЛ Гулянци, 34, Васил Левски, Гулянци, Плевен, България",100
МБАЛ-Добрич АД,Добрич,ДОБРИЧ-ГРАД,Добрич,ул. Панайот Хитов 24,"Д-Р ГЕОРГИ МИТКОВ ЖЕЛЯЗКОВ, ЖАНИНА ПЕТРОВА КАЛИНКОВА-ДИНОВСКА, МАРИЯН ИВАНОВ АНАНИЕВ, КРАСИМИР ЖЕЛЕВ НИКОЛОВ, ТРИФОН ВЛАДИМИРОВ ЙОРДАНОВ, СВЕТОЗАР БАЙЧЕВ ПЕТРОВ","058/600160, 058/600414",43.5619362,27.8170904,nominatim_free,"24, Панайот Хитов, ЦГЧ, Добрич, 9300, България",100
МБАЛ-Света Петка АД - Видин,Видин,ВИДИН,Видин,ул. Цар Симеон Велики 119,"Д-Р ИВЕТА ГЕНКОВА НАЙДЕНОВА, Д-Р ЛЪЧЕЗАР ВЕЛКОВ БЛАЖЕВ, Д-Р ЦВЕТАН ИВАНОВ ВАСИЛЕВ, Д-Р ВИОЛЕТА ИЛИЕВА ДОЧКОВА",094/606025,43.9969127,22.8773112,nominatim_free,"МБАЛ ""Света Петка"", 119, Цар Симеон Велики, ж.к. Възраждане, Видин, 3701, България",100
МНОГОПРОФИЛНА БОЛНИЦА ЗА АКТИВНО ЛЕЧЕНИЕ СЪРЦЕ И МОЗЪК ЕАД,Плевен,ПЛЕВЕН,Плевен,ул. Пиер Кюри 2,"ЛЮБА МАРТИНОВА МИТЕВА-ВАСИЛЕВА, ЕЛЕНА ГЕОРГИЕВА НОЕВА",0878859167,43.4100992,24.6078583,nominatim_free,"2, Пиер Кюри, 9-ти квартал, Централна градска част, Плевен, 5800, България",100
МС Здраве Пазарджик,Пазарджик,ПАЗАРДЖИК,Пазарджик,ул. Константин Величков 50,"МАРИАНА ИВАНОВА ДИНКОВА, ЦВЕТАНКА ПЕТРОВА ЛЕПАРОВА, ЙОРДАН ЛЮБЕНОВ ПЕЛЕВ, СТОИЛ ГЕОРГИЕВ АПОСТОЛОВ",034/406133,42.5122021,24.1809738,nominatim_free,"Константин Величков, Панагюрище, Пазарджик, 4500, България",95
МЦ АСКЛЕПИЙ ООД,Кюстендил,САПАРЕВА БАНЯ,Сапарева Баня,ул. Германея 38,КРУМ БОГДАНОВ БОНЕВ,0701/50616,42.2881935,23.2537851,nominatim_free,"Аква клуб ""Котвата"", 38А, Германея, Сапарева баня, Кюстендил, 2650, България",90
МЦ АСКЛЕПИЙ ООД,Кюстендил,ДУПНИЦА,Дупница,ул. Солун 4,КРУМ БОГДАНОВ БОНЕВ,0701/50616,42.2659242,23.1188281,nominatim_free,"Солун, кв. Люляк, Дупница, Кюстендил, 2604, България",85
МЦ ВЕРЕЯ ЕООД,Стара Загора,КАЗАНЛЪК,Казанлък,ул. Александър Батенберг 1,ДОЦ. Д-Р ДИМИТЪР НИКОЛОВ ДЖЕЛЕБОВ,042/601460,42.6185876,25.3940305,nominatim_free,"Lilly, 1, Княз Александър Батенберг, Казанлък, Стара Загора, 6100, България",100
МЦ ВЕРЕЯ ЕООД,Стара Загора,КАЗАНЛЪК,Казанлък,ул. Стара Планина 12,ДОЦ. Д-Р ДИМИТЪР НИКОЛОВ ДЖЕЛЕБОВ,042/601460,42.6219025,25.3877961,nominatim_free,"кафе ""Червено и черно"", 12, Стара планина, ж.к. Васил Левски, Казанлък, Стара Загора, 6100, България",100
МЦ Вита Медика ЕООД,Разград,РАЗГРАД,Разград,ул. Странджа 9,ЕВГЕНИЯ АНДРЕЕВА КЕРЧЕВА,"0898492315, 084/656656",43.5297836,26.5205932,nominatim_free,"""Вита Медика"" ЕАД, 9, бул. Странджа, кв. Варош, Разград, 7200, България",90
МЦ Витамед ЕООД,Пловдив,КАРЛОВО,Карлово,ул. Тодор и Ана Пулеви 18 2 и 3,"Д-Р СТАНИМИР МАРИНОВ ЧЕШМЕДЖИЕВ, ВЕРКА ВЕЛЕВА ДОНЧЕВА","0335/92104, 0335/98872",42.6397684,24.8050476,nominatim_free,"Тодор и Ана Пулеви, Карлово, Пловдив, 4300, България",95
МЦ Витамед ЕООД,Пловдив,КАРЛОВО,Карлово,ул. Ген. Гурко Мархолев 3,"Д-Р СТАНИМИР МАРИНОВ ЧЕШМЕДЖИЕВ, ВЕРКА ВЕЛЕВА ДОНЧЕВА","0335/92104, 0335/98872",42.6448182,24.7998817,nominatim_free,"Генерал Гурко Мархолев, кв. Бадемлика, Карлово, Пловдив, 4300, България",95
МЦ Луксор EООД,Пловдив,ПЛОВДИВ,Пловдив,бул. България 59,"Д-Р ДИМИТЪР ГЕОРГИЕВ ТАСКОВ, НИНА СТАНЕВА СТОЯНОВА",032/968881,42.1587271,24.7395936,nominatim_free,"Очна Клиника ""Луксор"", 59, бул. България, Герджика, Северен, Пловдив, 4003, България",90
МЦ Надежда ООД,Благоевград,БЛАГОЕВГРАД,Благоевград,жк Запад 11,НАДЕЖДА ВЕСЕЛИНОВА КОСТАДИНОВА-ГОЦЕВА,"073/833192, 0897978363",42.0183814,23.0841236,nominatim_free,"бл. 11, ж.к. Запад, Благоевград, 2700, България",85
МЦ ПО ОЧНИ БОЛЕСТИ Д-Р МАРИНОВИ ООД,Шумен,ШУМЕН,Шумен,ул. Цар Освободител 100,МАРИН ГЕОРГИЕВ МАРИНОВ,"0899496044, 0896540090",43.2728625,26.9266203,nominatim_free,"100, Цар Освободител, ж.к. Южен бряг, Шумен, 9700, България",90
МЦ Ре Спиро ООД,Разград,РАЗГРАД,Разград,ул. Кирил и Методий 2,ИВАН АТАНАСОВ КИСЕЛОВ,0886430823,43.5255966,26.5264566,nominatim_free,"2, Св. Св. Кирил и Методий, кв. Варош, Разград, 7200, България",100
МЦ СВЕТА МАРИНА-ДИАГНОСТИКА И ТЕРАПИЯ ООД,Плевен,ПЛЕВЕН,Плевен,ул. Цар Симеон 23,"Д-Р ЖИТИАН АЛЕКСАНДРОВ АТАНАСОВ, ПРОФ. Д-Р ГРИГОР АНГЕЛОВ ГОРЧЕВ","064/806838, 064/8181, 064/805666",43.6472778,24.6926315,nominatim_free,"23, Цар Симеон, Гулянци, Плевен, България",90
МЦ СВЕТА МАРИНА-ДИАГНОСТИКА И ТЕРАПИЯ ООД,Плевен,ПЛЕВЕН,Плевен,пл. Възраждане 1,"Д-Р ЖИТИАН АЛЕКСАНДРОВ АТАНАСОВ, ПРОФ. Д-Р ГРИГОР АНГЕЛОВ ГОРЧЕВ","064/806838, 064/8181, 064/805666",43.40791,24.6193607,nominatim_free,"пл. Възраждане, 9-ти квартал, Централна градска част, Плевен, 5801, България",80
МЦ Света Елисавета -Раковски ЕООД,Пловдив,ПЛОВДИВ,Пловдив,ул. Велико Търново 21,"Д-Р АНДРЕЙ ЙОЗОВ БАКЪРДЖИЙСКИ, ЕЛЕНА МИХАЙЛОВА ИВАНОВА, КИРИЛ ГЕНОВ КАРАГЕОРГИЕВ, ЕЛЕНА ПЕТРОВА КОЛАРОВА","03151/2429, 03151/2033",42.1402078,24.7467448,nominatim_free,"Медикус Алфа, 21, Велико Търново, Триъгълника, Гроздов пазар, Централен, Пловдив, 4000, България",100
МЦ Света Елисавета -Раковски ЕООД,Пловдив,РАКОВСКИ,Раковски,ул. Васил Петлешков 1,"Д-Р АНДРЕЙ ЙОЗОВ БАКЪРДЖИЙСКИ, ЕЛЕНА МИХАЙЛОВА ИВАНОВА, КИРИЛ ГЕНОВ КАРАГЕОРГИЕВ, ЕЛЕНА ПЕТРОВА КОЛАРОВА","03151/2429, 03151/2033",42.2825686,24.964661,nominatim_free,"Васил Петлешков, Квартал Генерал Николаево, Раковски, Пловдив, 4150, България",95
МЦ-МЕДИЦИНСКИ КОМПЛЕКС БЕРОЕ ЕООД,Стара Загора,КАЗАНЛЪК,Казанлък,ул. Христо Ботев 78,Д-Р НИКОЛАЙ НЕШЕВ САЛУТСКИ,"042/919402, 0892257396",42.6215585,25.3876102,nominatim_free,"Медицински Център Казанлък, 78, Христо Ботев, Казанлък, Стара Загора, 6100, България",100
Медикус Алфа СХБАЛ ЕООД Пловдив,Пловдив,ПЛОВДИВ,Пловдив,ул. Велико Търново 21,Д-Р ДИНКО МЛАДЕНОВ ГОСПОДИНОВ,"032/634463, 0898416038",42.1402078,24.7467448,nominatim_free,"Медикус Алфа, 21, Велико Търново, Триъгълника, Гроздов пазар, Централен, Пловдив, 4000, България",100
Многопрофилна болница за активно лечение Свети Иван Рилски Габрово ЕООД,Габрово,ГАБРОВО,Габрово,бул. Трети март 9,"ДОБРОМИР ИЛИЕВ ИЛКОВСКИ, ИНА СТОЯНОВА ФИЛИПОВА",0884494924,42.851559,25.3226116,nominatim_free,"МБАЛ ""Свети Иван Рилски"" – Габрово, 9, бул. Трети март, кв. Шиваров мост, кв. Радичевец, Габрово град, Габрово, 5304, България",100
ПЪРВА ЧАСТНА МБАЛ Враца ЕООД,Враца,ВРАЦА,Враца,ул. Скакля 6,"Д-Р ПЛАМЕН ЦЕНОВ БЛАЖЕВ, Д-Р АНТОНИО ИЛИЕВ ГЕОРГИЕВ, Д-Р ДАРИН ВАСИЛЕВ ДРАГАНОВ","0887999091, 0878660501, 092/665757, 0878687646",43.1966561,23.562607,nominatim_free,"Първа Частна МБАЛ-Враца, 6, Скакля, кв. Медковец, ж.к. Вежен, Враца, 3000, България",90
СБАЛ ПО КАРДИОЛОГИЯ ЯМБОЛ ЕАД,Ямбол,ЯМБОЛ,Ямбол,ул. Димитър Благоев 69,"СИДИКУЛАХ РАХИМИ, МАРИАН ТОДОРОВ ИНГЕЛИЕВ, БОРИС ПЕТКОВ ЧОРБАДЖИЙСКИ, БИСТРА СТОИЧКОВА ПЕШЕВА-МУСИЕВСКА, ПЕТЯ ИВАНОВА ДИНОВСКА, МЛАДЕН ВЛАДИМИРОВ ГРИГОРОВ","046/662215, 046/662377, 046/662389",42.4869046,26.5173794,nominatim_free,"СБАЛ по кардиология, 69, бул. Димитър Благоев, ж.к. Боровец, Ямбол, 8600, България",100
СБАЛ ПФЗ Д-р Димитър Граматиков Русе ЕООД,Русе,РУСЕ,Русе,ул. Алея Лилия 1,"СВЕТОСЛАВ ДАЧЕВ ДАЧЕВ, ДИМИТЪР СТОЯНОВ ГРАМАТИКОВ",082/813960,43.8592199,25.9632346,nominatim_free,"Специализирана болница за активно лечение за пневмо – фтизиатрични заболявания Д-р ""Димитър Граматиков"", 1, Алея Лилия, ж.к. Възраждане, Русе, 7002, България",100
СБАЛ ФРМ МЕДИКА ООД Русе,Русе,РУСЕ,Русе,ул. Независимост 2,КИРИЛ ПАНАЙОТОВ ПАНАЙОТОВ,0885304040,43.8572647,25.960608,nominatim_free,"Независимост, ж.к. Възраждане, Русе, 7002, България",85
СБАЛ по кардиология Варна ЕАД,Варна,ВАРНА,Варна,бул. Цар Освободител 100,"Д-Р ХАРАЛИН СТОЯНОВ ТУМБЕВ, ПРОФ. Д-Р МЛАДЕН ВЛАДИМИРОВ ГРИГОРОВ, ПРОФ. Д-Р НИКОЛАЙ ЙОРДАНОВ ПЕНКОВ","052/648020, 052/603203",43.2136534,27.9182217,nominatim_free,"СБАЛ по кардиология, 100, бул. Цар Освободител, Цветен квартал, Варна, Приморски, Варна, 9000, България",90
СБАЛАГ Торакс Д-р Сава Бояджиев ЕООД Пловдив,Пловдив,ПЛОВДИВ,Пловдив,ул. Димитър Цончев 5,"Д-Р ИВАН ТОНОВ ГЛАВЧЕВ, ЮРИ СПАСОВ, ГЕОРГИ ИВАНОВ БЛАГОЕВ","032/625125, 0887594916",42.150767,24.7432498,nominatim_free,"Д-р Юрий Асенов - Пластичен Хирург, 5, Димитър Цончев, Капана, Централен, Пловдив, 4020, България",100
СБАЛББ Габрово ЕООД,Габрово,ГАБРОВО,Габрово,ул. д-р Кирил Въгленов 1,"ИВО ГИЧЕВ СТАНЧЕВ, АНТОНИЯ ГЕОРГИЕВА КОЛЕВА",066/878670,42.8438009,25.3145644,nominatim_free,"СБАЛ по Белодробни Болести- Габрово-ПАРАХОДА, 1, д-р Кирил Въгленов, кв. Дядо Дянко, Габрово град, Габрово, 5304, България",100
СБАЛК Велико Търново ЕАД,Велико Търново,ВЕЛИКО ТЪРНОВО,Велико Търново,ул. Бузлуджа 1,"МАРИЯНА РАЙКОВА ГЕОРГИЕВА, Д-Р ПЕТЯ ИВАНОВА ДИНОВСКА, ПРОФ. МЛАДЕН ВЛАДИМИРОВ ГРИГОРОВ, Д-Р НОРА ГЕОРГИЕВА ЦВЕТКОВА, Д-Р ЙОРДАНКА ТОМОВА-ДИМОВА, Д-Р СОТИР ТОДОРОВ МАРЧЕВ","062/632020, 062/624030",43.1095857,25.7137869,nominatim_free,"Бузлуджа, Лясковец, Велико Търново, 5140, България",85
СБАЛК Медика Кор ЕАД Русе,Русе,РУСЕ,Русе,ул. Независимост 2,КИРИЛ ПАНАЙОТОВ ПАНАЙОТОВ,"082/887363, 0885304040",43.8572647,25.960608,nominatim_free,"Независимост, ж.к. Възраждане, Русе, 7002, България",85
СБАЛК ПО КАРДИОЛОГИЯ МАДАРА ЕАД ШУМЕН,Шумен,ШУМЕН,Шумен,ул. Васил Априлов 63,"МАРТИН СТОЙНЕВ СТОЙНЕВ, ИВАЙЛО ВЛАДИМИРОВ ДОЙЧИНОВ","054/801260, 054/801261",43.2755071,26.9171495,nominatim_free,"МБАЛ-Шумен, 63, Васил Априлов, Азалия, м. Бялата пръст, Шумен, 9705, България",100
СБПЛР ЕООД,Перник,ПЕРНИК,Перник,"ул. ""Протожерица"" 102","ЮРИ ВАСИЛЕВ ТОРНЕВ, БОЯН БОГДАНОВ ДРАГАНОВ, ЙОРДАНКА АЛЕКСАНДРОВА КОСТАДИНОВА, ВЕНЦИСЛАВ ДАФИНОВ ЧУНОВ, РОСИЦА ИВАНОВА ГАЙДАРОВА, ЕМИЛ ЕМИЛОВ НЕНКОВ, ЙОРДАН МЕТОДИЕВ ИВАНЧЕВ, ИННА ПЕТРОВА СТОИЛОВА","0897/084072, 076/604402, 076/604412, 076/590800, 0894492213",42.5918217,23.0303741,nominatim_free,"Многопрофилна болница за долекуване, продължително лечение и рехабилитация - ""Профилакториум"", 102, Протожерица, кв. Ралица, Перник, 2307, България",80
СБР ВИТА ЕООД,Пазарджик,ВЕЛИНГРАД,Велинград,"ул. ""Пушкин"" 2",АНГЕЛ ХАРАЛАМБИЕВ ПЕЕВ,"0359/52159, 0359/52438",42.0316189,23.9847627,nominatim_free,"ВИТА, 2, Пушкин, кв. Лъджене, Велинград, Пазарджик, 4600, България",80
СБР ОРФЕЙ ЕООД,Смолян,ДЕВИН,Девин,ул. Цветан Зангов 14,ЮЛИЯ БОЙКОВА КИСИМОВА,"0878228867, 03041/3657",41.742147,24.3958952,nominatim_free,"Orpheus Spa & Resort, 14, Цветан Зангов, Девин, Смолян, 4800, България",100
СОБАЛ Луксор ООД Пловдив,Пловдив,ПЛОВДИВ,Пловдив,бул. България 59,"Д-Р ДИМИТЪР ГЕОРГИЕВ ТАСКОВ, МАРИЯ ГЕОРГИЕВА МИХАЙЛОВА, ИСКРА ГЕОРГИЕВА ШИШКОВА","032/968881, 032/968882",42.1587271,24.7395936,nominatim_free,"Очна Клиника ""Луксор"", 59, бул. България, Герджика, Северен, Пловдив, 4003, България",90
СХБАЛ проф. Темелков ООД Варна,Варна,ВАРНА,Варна,ул. „Алеко Константинов” 5,"МАРИЯ ТЕМЕЛКОВА ЙОРДАНОВА, ПРОФ. Д-Р ТЕМЕЛЕКО ДОБРОЛЮБОВ ТЕМЕЛКОВ","052/600126, 052/600127",43.2109401,27.9070448,nominatim_free,"Хирургическа Болница Проф. Темелков, 3-5, Алеко Константинов, Колхозен пазар, Варна, Одесос, Варна, 9000, България",80
УМБАЛ КАНЕВ АД,Русе,РУСЕ,Русе,ул. Независимост 2,"ИВАН СТЕФАНОВ ИВАНОВ, МИНЧО ИЛИЕВ ВИЧЕВ, АНТОАНЕЛА СЛАВЧЕВА ПЕТРОВА-ГАНЧЕВА, НЕЛИ СТЕФАНОВА ПЕТРОВА, ВЛАДИН ИВАНОВ ПЕТРОВ, ИВАН ХРИСТОВ СТОЯНОВ, АЛЕКСАНДЪР БОРИСОВ ПАРАШКЕВОВ","082/887215, 082/821011, 082/887351, 082/887223",43.8572647,25.960608,nominatim_free,"Независимост, ж.к. Възраждане, Русе, 7002, България",85
УМБАЛ Проф. д-р Стоян Киркович АД гр. Стара Загора,Стара Загора,СТАРА ЗАГОРА,Стара Загора,"ул. ""Ген. Столетов"" 2","ПРОФ. Д-Р ЙОВЧО ПЕТКОВ ЙОВЧЕВ, Д.М., ПЕТЪР АТАНАСОВ АТАНАСОВ, ПЕТРАНКА ИЛИЕВА ЧАКЪРОВА, ДОЦ. Д-Р ЙОВЧО ПЕТКОВ ЙОВЧЕВ","042/623750, 042/601125",42.4259301,25.6139963,nominatim_free,"2, Генерал Столетов, кв. Македонски, Стара Загора, 6000, България",80
УМБАЛ СВЕТА МАРИНА ЕАД гр. Варна,Варна,ВАРНА,Варна,"бул. ""Цар Освободител"" 100; к.к ""Св. Св. Константин и Елена"", хотел ""Естрея Резиденс""; бул. ”Христо Смирненски” 1","ПРОФ. Д-Р СИЛВА ПЕТЕВА АНДОНОВА-АТАНАСОВА Д.М.Н., ПРОФ. Д-Р КРАСИМИР ДИМИТРОВ ИВАНОВ Д.М.Н., ПРОФ. Д-Р ЖАНЕТА ГЕОРГИЕВА ТЯНЕВА, Д.М.Н., ПРОФ. Д-Р ВАЛЕНТИН ЛЮБОМИРОВ ИГНАТОВ Д.М.","052302875, 052/302874",43.2065413,27.9250496,nominatim_free,"1, бул. Цар Освободител, Гръцката махала, Център, Варна, Одесос, Варна, 9001, България",100
ЦЕНТЪР ЗА КОЖНО - ВЕНЕРИЧЕСКИ ЗАБОЛЯВАНИЯ - Враца ЕООД,Враца,ВРАЦА,Враца,"бул. ""Втори юни"" 68; бул. ""Втори Юни"" 66","ИВО ВАСИЛЕВ НИКОЛОВ, Д-Р ГРИГОР ТОМОВ ГРИГОРОВ, Д-Р МАГДАЛЕНА ЦВЕТАНОВА ПЕТКОВА, СНЕЖА ПЕТРОВА АЛЕКСАНДРОВА, Д-Р КЕТИ ДИТКОВА ЦЕНОВА - СРЕДКОВА","0879887377, 092/665465, 092/665571, 092/624040, 0883256364",43.1963546,23.5590234,nominatim_free,"МБАЛ „Христо Ботев"", 66, бул. Втори юни, кв. Химик, Враца, 3001, България",100
